"msgParts,ts,connection.country,connection.helo,connection.host,connection.ip,connection.protocol,connection.resolveStatus,connection.tls.inbound.cipher,connection.tls.inbound.cipherBits,connection.tls.inbound.version,envelope.from,envelope.rcpts,filter.actions,filter.delivered.rcpts,filter.disposition,filter.durationSecs,filter.modules.spam.langs,filter.modules.spam.scores.classifiers.adult,filter.modules.spam.scores.classifiers.bulk,filter.modules.spam.scores.classifiers.impostor,filter.modules.spam.scores.classifiers.lowpriority,filter.modules.spam.scores.classifiers.malware,filter.modules.spam.scores.classifiers.mlx,filter.modules.spam.scores.classifiers.mlxlog,filter.modules.spam.scores.classifiers.phish,filter.modules.spam.scores.classifiers.spam,filter.modules.spam.scores.classifiers.suspect,filter.modules.spam.scores.engine,filter.modules.spam.scores.overall,filter.modules.spam.version.definitions,filter.modules.spam.version.engine,filter.msgSizeBytes,filter.routeDirection,filter.routes,filter.suborgs.rcpts,filter.suborgs.sender,filter.verified.rcpts,metadata.origin.data.agent,metadata.origin.data.version,msg.header.from,msg.header.reply-to,msg.header.subject,msg.header.to,msg.lang,msg.normalizedHeader.from,msg.normalizedHeader.reply-to,msg.normalizedHeader.subject,msg.normalizedHeader.to,msg.parsedAddresses.from,msg.parsedAddresses.reply-to,msg.parsedAddresses.to,msg.sizeBytes,data,metadata.origin.schemaVersion,pps.agent,sm.delay,sm.dsn,sm.mailer,sm.pri,sm.relay,sm.stat,sm.to,sm.xdelay,tls.cipher,tls.verify,tls.version,msg.header.cc,msg.header.x-originating-ip,msg.normalizedHeader.cc,msg.normalizedHeader.x-originating-ip,msg.parsedAddresses.cc,msg.parsedAddresses.fromDisplayNames,sm.auth,sm.class,sm.daemon,sm.from,sm.nrcpts,sm.proto,sm.sizeBytes,filter.modules.spam.triggeredClassifier,msg.header.x-mailer,msg.normalizedHeader.x-mailer,filter.isMsgReinjected,filter.isMsgSplit,filter.reinjectedType,filter.splitType,filter.modules.urldefense.counts.noRewriteIsExcludedDomain,filter.modules.urldefense.counts.rewritten,filter.modules.urldefense.counts.total,filter.modules.urldefense.counts.unique,filter.modules.urldefense.version.engine,msg.header.return-path,msg.normalizedHeader.return-path,filter.modules.dkimv,filter.modules.dmarc.alignment,filter.modules.dmarc.authResults,filter.modules.dmarc.filterdResult,filter.modules.dmarc.isVerified,filter.modules.dmarc.records,filter.modules.pdr.v2.response,filter.modules.spf.domain,filter.modules.spf.result,filter.modules.spam.scores.classifiers.unknownsender,filter.modules.urldefense.counts.noRewriteIsEmail,filter.modules.spam.scores.classifiers.adjust,filter.modules.spam.scores.classifiers.ndr,filter.quarantine.folder,filter.quarantine.folderId,filter.quarantine.module,filter.quarantine.rule,filter.quarantine.type,filter.modules.urldefense.counts.noRewriteIsUnsupportedScheme,category,delivered,ccAddresses,cluster,completelyRewritten,fromAddress,GUID,headerFrom,messageID,messageParts,messageSize,messageTime,modulesRun,policyRoutes,QID,recipient,sender,senderIP,subject,threatsInfoMap,toAddresses,local_quarantine.quarantined,local_quarantine.ts,local_quarantine.error,local_quarantine.api_status_code,local_quarantine.body.folder_name,local_quarantine.body.inbox,local_quarantine.body.ts,local_quarantine.upn,local_quarantine.method,name,forensics,filter.isMsgOnHold,filter.modules.pdr.v2.rscore,filter.aliasedRcpts,sm.ctladdr,filter.modules.urldefense.counts.noRewriteIsSchemeless,blocked,malwareScore,quarantineFolder,quarantineRule,spamScore,campaignMembers,actors,malware,techniques,filter.modules.av.virusNames,headerReplyTo,replyToAddress,filter.isMsgInDigest,filter.isMsgEncrypted,filter.modules.spam.safeBlockedListMatches,xmailer,filter.modules.spam.scores.classifiers.unsafe,filter.isMsgSigned,impostorScore,phishScore,filter.modules.spam.scores.classifiers.sn,guid,connection.sid,filter.qid,metadata.origin.data.cid,msg.header.message-id,msg.normalizedHeader.message-id,id,metadata.customerId,pps.cid,sm.qid,sm.msgid,filter.origGuid,filter.modules.dmarc.srvid,local_quarantine.body.folder_id,local_quarantine.body.msg_id"
",2024-05-15T12:15:48.534787+0200,,,,,,,,,,,,,,,,,,,,,,,,,,,,,,,,,,,,,m0133941.ppops.net,,,,,,,,,,,,,,,""2024-05-15T12:15:48.534787+02:00 m0133941 sendmail[19435]: 44D4iUdT013089: to=<nnuriabb@gmail.com>, delay=2+03:35:28, xdelay=00:00:03, mailer=esmtp, tls_verify=OK, tls_version=TLSv1.2, cipher=ECDHE-RSA-AES128-GCM, pri=19509070, relay=alt3.gmail-smtp-in.l.google.com. [142.250.27.27], dsn=4.2.2, reply=452-4.2.2 The recipient's inbox is out of storage space. Please direct the, stat=Deferred: 452-4.2.2 The recipient's inbox is out of storage space. Please direct the"",20200420.0,m0133941.ppops.net,2+03:35:28,4.2.2,esmtp,19509070.0,alt3.gmail-smtp-in.l.google.com. [142.250.27.27],Deferred: 452-4.2.2 The recipient's inbox is out of storage space. Please direct the,['<nnuriabb@gmail.com>'],00:00:03,ECDHE-RSA-AES128-GCM,OK,TLSv1.2,,,,,,,,,,,,,,,,,,,,,,,,,,,,,,,,,,,,,,,,,,,,,,,,,,,,,,,,,,,,,,,,,,,,,,,,,,,,,,,,,,,,,,,,,,,,,,,,,,,,,,,,,0,0,0,0,0,0,0,0,0,0,0,0,0,0,0"
"[{'dataBase64': 'U0NBTEFSKDB4N2YyNjAxNjkyMjg4KQ==\n', 'detectedCharset': 'iso-8859-1', 'detectedExt': 'TXT', 'detectedMime': 'text/plain', 'detectedName': 'text.txt', 'detectedSizeBytes': 13, 'disposition': 'inline', 'isArchive': False, 'isCorrupted': False, 'isDeleted': False, 'isProtected': False, 'isTimedOut': False, 'isVirtual': False, 'labeledCharset': 'ISO-8859-1', 'labeledExt': 'txt', 'labeledMime': 'text/plain', 'labeledName': 'text.txt', 'md5': '7ca26549c26cec22b23d2547e25b3bf2', 'metadata': {}, 'sha256': 'bff014018beee1b50723dea3281793e3195a5f9c1d18950c8cbf577dba4610fe', 'sizeDecodedBytes': 13, 'structureId': '0:0', 'textExtracted': 'U0NBTEFSKDB4N2YyNGFkNzcwYmU4KQ==\n', 'urls': []}, {'dataBase64': 'U0NBTEFSKDB4N2YyNWU2NzA1NDA4KQ==\n', 'detectedCharset': 'iso-8859-1', 'detectedExt': 'HTML', 'detectedMime': 'text/html', 'detectedName': 'text.html', 'detectedSizeBytes': 26, 'disposition': 'inline', 'isArchive': False, 'isCorrupted': False, 'isDeleted': False, 'isProtected': False, 'isTimedOut': False, 'isVirtual': False, 'labeledCharset': 'ISO-8859-1', 'labeledExt': 'html', 'labeledMime': 'text/html', 'labeledName': 'text.html', 'md5': '2c5dbf1bfd210755ef45e4a7ec7456ba', 'metadata': {}, 'sha256': '5f5f0aa29502051bc8870a7d23e71c6752a0c8ebb56df17a58e8de4a55c0297f', 'sizeDecodedBytes': 26, 'structureId': '0:1', 'textExtracted': 'U0NBTEFSKDB4N2YyNGFlMWQ5MGYwKQ==\n', 'urls': []}],2024-05-15T12:01:39.474252+0200,de,smtp06-fra-sp3.mta.salesforce.com,smtp06-fra-sp3.mta.salesforce.com,85.222.158.197,smtp:smtp,ok,ECDHE-RSA-AES256-GCM-SHA384,256.0,TLSv1.2,servicio.cliente=sac.caixabank.com__3hidg8pnhpt91eom@e2ne16u1djrc.1t-x4n6eaa.eu33.bnc.salesforce.com,""['incidencias_ggh@caixabankops.com', 'scan@msp.secscan.xyz']"",""[{'action': 'execute', 'module': 'access', 'rule': 'comercia_to_Salesforce'}, {'action': 'set-spam-classifier', 'module': 'access', 'rule': 'comercia_to_Salesforce_Phish'}, {'action': 'continue', 'isFinal': True, 'module': 'pdr', 'rule': 'pass'}, {'action': 'add-header', 'module': 'access', 'rule': 'eximator_inbound'}, {'action': 'add-rcpts', 'module': 'access', 'rule': 'eximator_inbound'}, {'action': 'continue', 'module': 'access', 'rule': 'eximator_inbound'}, {'action': 'continue', 'module': 'spf', 'rule': 'owned_domains_pass'}, {'action': 'continue', 'module': 'spf', 'rule': 'pass'}, {'action': 'add-header', 'module': 'av', 'rule': 'allow_protected_clean'}, {'action': 'continue', 'module': 'av', 'rule': 'allow_protected_clean'}, {'action': 'continue', 'module': 'dkimv', 'rule': 'owned_domains_pass'}, {'action': 'add-header', 'module': 'spam', 'rule': 'safe'}]"",""['incidencias_ggh@caixabankops.com', 'scan@msp.secscan.xyz']"",continue,0.300533,""['en', 'pt', 'es']"",0.0,0.0,0.0,0.0,0.0,0.0,296.0,0.0,0.0,0.0,0.0,0.0,main-2405150067,8.19.0-2405010000,4179.0,inbound,""['cbk_efw_incidents', 'default_inbound', 'display_address_corporativa', 'edg_inbound', 'owned_domain_from_salesforce', 'owned_domains_in_from', 'report_caixabankops_com_inbound', 'to_groupcbk_domains']"",['0'],0.0,<email>,m0133946.ppops.net,8.20.4.142,['Caixabank SAC <servicio.cliente@sac.caixabank.com>'],,['=?ISO-8859-1?Q?Redacci=F3n_realizada?='],""['""""incidencias_ggh@caixabankops.com"""" <incidencias_ggh@caixabankops.com>']"",ro,['Caixabank SAC <servicio.cliente@sac.caixabank.com>'],,['Redacción realizada'],""['""""incidencias_ggh@caixabankops.com"""" <incidencias_ggh@caixabankops.com>']"",['servicio.cliente@sac.caixabank.com'],,['incidencias_ggh@caixabankops.com'],3134.0,,,,,,,,,,,,,,,,,,,,['Caixabank SAC'],,,,,,,,safe,,,,,,,,0.0,0.0,0.0,15.0,['<servicio.cliente=sac.caixabank.com__3hidg8pnhpt91eom@e2ne16u1djrc.1t-x4n6eaa.eu33.bnc.salesforce.com>'],['<servicio.cliente=sac.caixabank.com__3hidg8pnhpt91eom@e2ne16u1djrc.1t-x4n6eaa.eu33.bnc.salesforce.com>'],""[{'domain': 'sac.caixabank.com', 'result': 'pass', 'selector': 'sac'}]"",,,,,,pass,e2ne16u1djrc.1t-x4n6eaa.eu33.bnc.salesforce.com,pass,,,,,,,,,,,,,,,,,,,,,,,,,,,,,,,,,,,,,,,,,,,,,""[{'alias': 'incidencias_ggh@caixabankops.com', 'primary': 'incidencias_GGH@caixabankops.com'}]"",,,,,,,,,,,,,,,,,,,,,,,,1,1,1,0,1,1,1,1,1,1,0,0,0,0,0"
",2024-05-15T11:57:39.497552+0200,,,,,,,,,,,,,,,,,,,,,,,,,,,,,,,,,,,,,m0133938.ppops.net,,,,,,,,,,,,,,,""2024-05-15T11:57:39.497552+02:00 m0133938 sendmail[14636]: 44F87mFF014979: to=<scan@msp.secscan.xyz>, delay=00:00:01, xdelay=00:00:00, mailer=esmtp, tls_verify=FAIL, tls_version=TLSv1.2, cipher=ECDHE-RSA-AES256-GCM, pri=152448, relay=msp.secscan.xyz. [5.200.20.61], dsn=2.0.0, stat=Sent (Ok: queued)"",20200420.0,m0133938.ppops.net,00:00:01,2.0.0,esmtp,152448.0,msp.secscan.xyz. [5.200.20.61],Sent (Ok: queued),['<scan@msp.secscan.xyz>'],00:00:00,ECDHE-RSA-AES256-GCM,FAIL,TLSv1.2,,,,,,,,,,,,,,,,,,,,,,,,,,,,,,,,,,,,,,,,,,,,,,,,,,,,,,,,,,,,,,,,,,,,,,,,,,,,,,,,,,,,,,,,,,,,,,,,,,,,,,,,,0,0,0,0,0,0,2,0,0,2,0,0,0,0,0"
",2024-05-15T11:23:15.841834+0200,,,,,,,,,,,,,,,,,,,,,,,,,,,,,,,,,,,,,m0133943.ppops.net,,,,,,,,,,,,,,,""2024-05-15T11:23:15.841834+02:00 m0133943 sendmail[5378]: 44C6V7cx002256: to=<aitanaperez02@gmail.com>, delay=2+23:32:49, xdelay=00:00:01, mailer=esmtp, tls_verify=OK, tls_version=TLSv1.2, cipher=ECDHE-RSA-AES128-GCM, pri=26612923, relay=alt2.gmail-smtp-in.l.google.com. [142.250.150.27], dsn=4.2.2, reply=452-4.2.2 The recipient's inbox is out of storage space. Please direct the, stat=Deferred: 452-4.2.2 The recipient's inbox is out of storage space. Please direct the"",20200420.0,m0133943.ppops.net,2+23:32:49,4.2.2,esmtp,26612923.0,alt2.gmail-smtp-in.l.google.com. [142.250.150.27],Deferred: 452-4.2.2 The recipient's inbox is out of storage space. Please direct the,['<aitanaperez02@gmail.com>'],00:00:01,ECDHE-RSA-AES128-GCM,OK,TLSv1.2,,,,,,,,,,,,,,,,,,,,,,,,,,,,,,,,,,,,,,,,,,,,,,,,,,,,,,,,,,,,,,,,,,,,,,,,,,,,,,,,,,,,,,,,,,,,,,,,,,,,,,,,,0,0,0,0,0,0,3,0,0,3,0,0,0,0,0"
"[{'dataBase64': 'U0NBTEFSKDB4N2YyZDZlY2UyNTcwKQ==\n', 'detectedCharset': 'utf-8', 'detectedExt': 'TXT', 'detectedMime': 'text/plain', 'detectedName': 'text.txt', 'detectedSizeBytes': 1631, 'disposition': 'inline', 'isArchive': False, 'isCorrupted': False, 'isDeleted': False, 'isProtected': False, 'isTimedOut': False, 'isVirtual': False, 'labeledCharset': 'UTF-8', 'labeledExt': 'txt', 'labeledMime': 'text/plain', 'labeledName': 'text.txt', 'md5': '02ce9ca28e5388ee87d2da9b44fc27fa', 'metadata': {}, 'sha256': '6d059109e369378b05a93cc67e72e7856520d94b58489e5e1e6780829c9fe3f0', 'sizeDecodedBytes': 1631, 'structureId': '0', 'textExtracted': 'U0NBTEFSKDB4N2YyZDNjMTNlZmE4KQ==\n', 'urls': [{'src': ['filter'], 'url': 'https://eidesrtcp.svb.lacaixa.es/jazz/resource/itemName/com.ibm.team.workitem.WorkItem/1328073'}]}],2024-05-15T12:16:08.686761+0200,de,relay.goskope.com,relay.goskope.com,31.186.239.107,smtp:smtp,ok,ECDHE-RSA-AES256-GCM-SHA384,256.0,TLSv1.2,team.concert@caixabank.com,""['mruizh@minsait.com', 'scan@msp.secscan.xyz']"",""[{'action': 'add-rcpts', 'module': 'access', 'rule': 'eximator_outbound'}, {'action': 'continue', 'isFinal': True, 'module': 'access', 'rule': 'eximator_outbound'}, {'action': 'add-header', 'module': 'av', 'rule': 'outbound_clean'}, {'action': 'continue', 'module': 'av', 'rule': 'outbound_clean'}, {'action': 'add-header', 'module': 'spam', 'rule': 'outbound_notspam'}]"",""['mruizh@minsait.com', 'scan@msp.secscan.xyz']"",continue,0.247782,""['en', 'es', 'pt']"",0.0,0.0,0.0,0.0,0.0,0.0,921.0,0.0,0.0,0.0,0.0,0.0,main-2405150069,8.19.0-2405010000,3972.0,outbound,""['Empresa_CBK_Out', 'allow_relay', 'bpi_sem_envio_domains', 'cbk_efw_incidents', 'display_address_corporativa', 'firewallsafe', 'o_caixabank_com', 'outbound_Netskope', 'owned_domains_in_from']"",['0'],0.0,<email>,m0133945.ppops.net,8.20.4.142,""['""""BUZON TEAM.CONCERT"""" <team.concert@caixabank.com>']"",,['[Elemento de trabajo 1328073] Plan de contingencia CEF- Revisar [s]'],['mruizh@minsait.com'],es,""['""""BUZON TEAM.CONCERT"""" <team.concert@caixabank.com>']"",,['[Elemento de trabajo 1328073] Plan de contingencia CEF- Revisar [s]'],['mruizh@minsait.com'],['team.concert@caixabank.com'],,['mruizh@minsait.com'],2777.0,,,,,,,,,,,,,,,,,,,,['BUZON TEAM.CONCERT'],,,,,,,,,,,,,,,,,,,,,,,,,,,,,,,,,,,,,,,,,,,,,,,,,,,,,,,,,,,,,,,,,,,,,,,,,,,,,,,,,,,,,,,,,,,,,,,,,,,2,2,2,0,2,2,1,1,1,1,0,0,0,0,0"
",2024-05-15T11:55:48.282939+0200,,,,,,,,,,,,,,,,,,,,,,,,,,,,,,,,,,,,,m0133941.ppops.net,,,,,,,,,,,,,,,""2024-05-15T11:55:48.282939+02:00 m0133941 sendmail[13623]: 44F3wuLn013623: from=<avisos@caixabank.com>, size=25063, class=0, nrcpts=2, msgid=<317253254.161.1715766946747@localhost>, proto=ESMTP, daemon=MTA, tls_verify=NONE, tls_version=NONE, cipher=NONE, auth=NONE, relay=m0133941.ppops.net [127.0.0.1]"",20200420.0,m0133941.ppops.net,,,,,m0133941.ppops.net [127.0.0.1],,,,NONE,NONE,NONE,,,,,,,NONE,0.0,MTA,<avisos@caixabank.com>,2.0,ESMTP,25063.0,,,,,,,,,,,,,,,,,,,,,,,,,,,,,,,,,,,,,,,,,,,,,,,,,,,,,,,,,,,,,,,,,,,,,,,,,,,,,,,,,,,,,,,,,,,,0,0,0,0,0,0,4,0,0,4,1,0,0,0,0"
",2024-05-15T12:22:43.650445+0200,,,,,,,,,,,,,,,,,,,,,,,,,,,,,,,,,,,,,m0133947.ppops.net,,,,,,,,,,,,,,,""2024-05-15T12:22:43.650445+02:00 m0133947 sendmail[641]: 44FAE2aY000641: from=<prvs=2865e4bd4b=mailbpi@mail.bancobpi.pt>, size=34285, class=0, nrcpts=2, msgid=<3y4u49r2r9-1@m0133947.ppops.net>, proto=ESMTP, daemon=MTA, tls_verify=NONE, tls_version=NONE, cipher=NONE, auth=NONE, relay=m0133947.ppops.net [127.0.0.1]"",20200420.0,m0133947.ppops.net,,,,,m0133947.ppops.net [127.0.0.1],,,,NONE,NONE,NONE,,,,,,,NONE,0.0,MTA,<prvs=2865e4bd4b=mailbpi@mail.bancobpi.pt>,2.0,ESMTP,34285.0,,,,,,,,,,,,,,,,,,,,,,,,,,,,,,,,,,,,,,,,,,,,,,,,,,,,,,,,,,,,,,,,,,,,,,,,,,,,,,,,,,,,,,,,,,,,0,0,0,0,0,0,5,0,0,5,2,0,0,0,0"
",2024-05-15T11:47:12.770918+0200,,,,,,,,,,,,,,,,,,,,,,,,,,,,,,,,,,,,,m0133943.ppops.net,,,,,,,,,,,,,,,""2024-05-15T11:47:12.770918+02:00 m0133943 sendmail[8918]: 44F4vIAg008918: from=<jaime.pinto@fundspeople.com>, size=121653, class=0, nrcpts=2, msgid=<CANO0Cdp=EiihJd18QEAu+T+zD2wMRWAJ+g_tQh3ebvhiYPsxZw@mail.gmail.com>, proto=ESMTP, daemon=MTA, tls_verify=NONE, tls_version=NONE, cipher=NONE, auth=NONE, relay=m0133943.ppops.net [127.0.0.1]"",20200420.0,m0133943.ppops.net,,,,,m0133943.ppops.net [127.0.0.1],,,,NONE,NONE,NONE,,,,,,,NONE,0.0,MTA,<jaime.pinto@fundspeople.com>,2.0,ESMTP,121653.0,,,,,,,,,,,,,,,,,,,,,,,,,,,,,,,,,,,,,,,,,,,,,,,,,,,,,,,,,,,,,,,,,,,,,,,,,,,,,,,,,,,,,,,,,,,,0,0,0,0,0,0,6,0,0,6,3,0,0,0,0"
",2024-05-15T12:03:19.303472+0200,,,,,,,,,,,,,,,,,,,,,,,,,,,,,,,,,,,,,m0133943.ppops.net,,,,,,,,,,,,,,,""2024-05-15T12:03:19.303472+02:00 m0133943 sendmail[25093]: 44DA35HN029558: to=<dh43099@gmail.com>, delay=1+22:59:22, xdelay=00:00:07, mailer=esmtp, tls_verify=OK, tls_version=TLSv1.2, cipher=ECDHE-RSA-AES128-GCM, pri=17528812, relay=alt3.gmail-smtp-in.l.google.com. [74.125.200.27], dsn=4.2.2, reply=452-4.2.2 The recipient's inbox is out of storage space. Please direct the, stat=Deferred: 452-4.2.2 The recipient's inbox is out of storage space. Please direct the"",20200420.0,m0133943.ppops.net,1+22:59:22,4.2.2,esmtp,17528812.0,alt3.gmail-smtp-in.l.google.com. [74.125.200.27],Deferred: 452-4.2.2 The recipient's inbox is out of storage space. Please direct the,['<dh43099@gmail.com>'],00:00:07,ECDHE-RSA-AES128-GCM,OK,TLSv1.2,,,,,,,,,,,,,,,,,,,,,,,,,,,,,,,,,,,,,,,,,,,,,,,,,,,,,,,,,,,,,,,,,,,,,,,,,,,,,,,,,,,,,,,,,,,,,,,,,,,,,,,,,0,0,0,0,0,0,7,0,0,7,0,0,0,0,0"
",2024-05-15T12:20:45.963795+0200,,,,,,,,,,,,,,,,,,,,,,,,,,,,,,,,,,,,,m0133938.ppops.net,,,,,,,,,,,,,,,""2024-05-15T12:20:45.963795+02:00 m0133938 sendmail[19540]: 44B3kPBs026726: to=<mariaisabelhc18@gmail.com>, delay=4+06:30:50, xdelay=00:00:02, mailer=esmtp, tls_verify=OK, tls_version=TLSv1.2, cipher=ECDHE-RSA-AES128-GCM, pri=37790018, relay=alt2.gmail-smtp-in.l.google.com. [173.194.219.27], dsn=4.2.2, reply=452-4.2.2 The recipient's inbox is out of storage space. Please direct the, stat=Deferred: 452-4.2.2 The recipient's inbox is out of storage space. Please direct the"",20200420.0,m0133938.ppops.net,4+06:30:50,4.2.2,esmtp,37790018.0,alt2.gmail-smtp-in.l.google.com. [173.194.219.27],Deferred: 452-4.2.2 The recipient's inbox is out of storage space. Please direct the,['<mariaisabelhc18@gmail.com>'],00:00:02,ECDHE-RSA-AES128-GCM,OK,TLSv1.2,,,,,,,,,,,,,,,,,,,,,,,,,,,,,,,,,,,,,,,,,,,,,,,,,,,,,,,,,,,,,,,,,,,,,,,,,,,,,,,,,,,,,,,,,,,,,,,,,,,,,,,,,0,0,0,0,0,0,8,0,0,8,0,0,0,0,0"
",2024-05-15T11:25:35.426965+0200,,,,,,,,,,,,,,,,,,,,,,,,,,,,,,,,,,,,,m0133938.ppops.net,,,,,,,,,,,,,,,""2024-05-15T11:25:35.426965+02:00 m0133938 sendmail[26777]: 44ABUcpu019169: to=<abdlkdermassyah@gmail.com>, delay=4+21:13:55, xdelay=00:00:02, mailer=esmtp, tls_verify=OK, tls_version=TLSv1.2, cipher=ECDHE-RSA-AES128-GCM, pri=43006163, relay=alt1.gmail-smtp-in.l.google.com. [209.85.202.27], dsn=4.2.2, reply=452-4.2.2 The recipient's inbox is out of storage space. Please direct the, stat=Deferred: 452-4.2.2 The recipient's inbox is out of storage space. Please direct the"",20200420.0,m0133938.ppops.net,4+21:13:55,4.2.2,esmtp,43006163.0,alt1.gmail-smtp-in.l.google.com. [209.85.202.27],Deferred: 452-4.2.2 The recipient's inbox is out of storage space. Please direct the,['<abdlkdermassyah@gmail.com>'],00:00:02,ECDHE-RSA-AES128-GCM,OK,TLSv1.2,,,,,,,,,,,,,,,,,,,,,,,,,,,,,,,,,,,,,,,,,,,,,,,,,,,,,,,,,,,,,,,,,,,,,,,,,,,,,,,,,,,,,,,,,,,,,,,,,,,,,,,,,0,0,0,0,0,0,9,0,0,9,0,0,0,0,0"
",2024-05-15T12:12:16.463163+0200,,,,,,,,,,,,,,,,,,,,,,,,,,,,,,,,,,,,,m0133943.ppops.net,,,,,,,,,,,,,,,""2024-05-15T12:12:16.463163+02:00 m0133943 sendmail[16606]: 44F7P6dK026020: to=<scan@msp.secscan.xyz>, delay=00:00:01, xdelay=00:00:00, mailer=esmtp, tls_verify=FAIL, tls_version=TLSv1.2, cipher=ECDHE-RSA-AES256-GCM, pri=195329, relay=msp.secscan.xyz. [5.200.20.61], dsn=2.0.0, stat=Sent (Ok: queued)"",20200420.0,m0133943.ppops.net,00:00:01,2.0.0,esmtp,195329.0,msp.secscan.xyz. [5.200.20.61],Sent (Ok: queued),['<scan@msp.secscan.xyz>'],00:00:00,ECDHE-RSA-AES256-GCM,FAIL,TLSv1.2,,,,,,,,,,,,,,,,,,,,,,,,,,,,,,,,,,,,,,,,,,,,,,,,,,,,,,,,,,,,,,,,,,,,,,,,,,,,,,,,,,,,,,,,,,,,,,,,,,,,,,,,,0,0,0,0,0,0,10,0,0,10,0,0,0,0,0"
",2024-05-15T12:16:50.998016+0200,,,,,,,,,,,,,,,,,,,,,,,,,,,,,,,,,,,,,m0133947.ppops.net,,,,,,,,,,,,,,,""2024-05-15T12:16:50.998016+02:00 m0133947 sendmail[7260]: 44FAE5Ik000888: to=<scan@msp.secscan.xyz>, delay=00:00:01, xdelay=00:00:00, mailer=esmtp, tls_verify=FAIL, tls_version=TLSv1.2, cipher=ECDHE-RSA-AES256-GCM, pri=193284, relay=msp2.secscan.xyz. [185.52.15.29], dsn=2.0.0, stat=Sent (Ok: queued)"",20200420.0,m0133947.ppops.net,00:00:01,2.0.0,esmtp,193284.0,msp2.secscan.xyz. [185.52.15.29],Sent (Ok: queued),['<scan@msp.secscan.xyz>'],00:00:00,ECDHE-RSA-AES256-GCM,FAIL,TLSv1.2,,,,,,,,,,,,,,,,,,,,,,,,,,,,,,,,,,,,,,,,,,,,,,,,,,,,,,,,,,,,,,,,,,,,,,,,,,,,,,,,,,,,,,,,,,,,,,,,,,,,,,,,,0,0,0,0,0,0,11,0,0,11,0,0,0,0,0"
",2024-05-15T12:00:49.450852+0200,,,,,,,,,,,,,,,,,,,,,,,,,,,,,,,,,,,,,m0133941.ppops.net,,,,,,,,,,,,,,,""2024-05-15T12:00:49.450852+02:00 m0133941 sendmail[13727]: 44D3t5jx009879: to=<sdas@dasds.com>, delay=2+05:46:05, xdelay=00:02:00, mailer=esmtp, tls_verify=NONE, tls_version=NONE, cipher=NONE, pri=18512349, relay=dasds.com. [52.71.57.184], dsn=4.4.1, stat=Deferred: Connection timed out with dasds.com."",20200420.0,m0133941.ppops.net,2+05:46:05,4.4.1,esmtp,18512349.0,dasds.com. [52.71.57.184],Deferred: Connection timed out with dasds.com.,['<sdas@dasds.com>'],00:02:00,NONE,NONE,NONE,,,,,,,,,,,,,,,,,,,,,,,,,,,,,,,,,,,,,,,,,,,,,,,,,,,,,,,,,,,,,,,,,,,,,,,,,,,,,,,,,,,,,,,,,,,,,,,,,,,,,,,,,0,0,0,0,0,0,12,0,0,12,0,0,0,0,0"
",2024-05-15T12:09:30.396741+0200,,,,,,,,,,,,,,,,,,,,,,,,,,,,,,,,,,,,,m0133940.ppops.net,,,,,,,,,,,,,,,""2024-05-15T12:09:30.396741+02:00 m0133940 sendmail[13938]: 44DGosgL014887: to=<JOSIANEREISEN779@GMAIL.COM>, delay=1+15:50:01, xdelay=00:00:02, mailer=esmtp, tls_verify=OK, tls_version=TLSv1.2, cipher=ECDHE-RSA-AES128-GCM, pri=15125064, relay=alt2.gmail-smtp-in.l.google.com. [173.194.219.26], dsn=4.2.2, reply=452-4.2.2 The recipient's inbox is out of storage space. Please direct the, stat=Deferred: 452-4.2.2 The recipient's inbox is out of storage space. Please direct the"",20200420.0,m0133940.ppops.net,1+15:50:01,4.2.2,esmtp,15125064.0,alt2.gmail-smtp-in.l.google.com. [173.194.219.26],Deferred: 452-4.2.2 The recipient's inbox is out of storage space. Please direct the,['<JOSIANEREISEN779@GMAIL.COM>'],00:00:02,ECDHE-RSA-AES128-GCM,OK,TLSv1.2,,,,,,,,,,,,,,,,,,,,,,,,,,,,,,,,,,,,,,,,,,,,,,,,,,,,,,,,,,,,,,,,,,,,,,,,,,,,,,,,,,,,,,,,,,,,,,,,,,,,,,,,,0,0,0,0,0,0,13,0,0,13,0,0,0,0,0"
",2024-05-15T11:30:13.160101+0200,,,,,,,,,,,,,,,,,,,,,,,,,,,,,,,,,,,,,m0133943.ppops.net,,,,,,,,,,,,,,,""2024-05-15T11:30:13.160101+02:00 m0133943 sendmail[8412]: 44F3Egvp028199: to=<scan@msp.secscan.xyz>, delay=00:00:02, xdelay=00:00:00, mailer=esmtp, tls_verify=FAIL, tls_version=TLSv1.2, cipher=ECDHE-RSA-AES256-GCM, pri=153916, relay=msp.secscan.xyz. [5.200.20.61], dsn=2.0.0, stat=Sent (Ok: queued)"",20200420.0,m0133943.ppops.net,00:00:02,2.0.0,esmtp,153916.0,msp.secscan.xyz. [5.200.20.61],Sent (Ok: queued),['<scan@msp.secscan.xyz>'],00:00:00,ECDHE-RSA-AES256-GCM,FAIL,TLSv1.2,,,,,,,,,,,,,,,,,,,,,,,,,,,,,,,,,,,,,,,,,,,,,,,,,,,,,,,,,,,,,,,,,,,,,,,,,,,,,,,,,,,,,,,,,,,,,,,,,,,,,,,,,0,0,0,0,0,0,14,0,0,14,0,0,0,0,0"
"[{'dataBase64': 'U0NBTEFSKDB4N2VmZTY1ZjYzODEwKQ==\n', 'detectedCharset': 'windows-1252', 'detectedExt': 'TXT', 'detectedMime': 'text/plain', 'detectedName': 'text.txt', 'detectedSizeBytes': 4436, 'disposition': 'inline', 'isArchive': False, 'isCorrupted': False, 'isDeleted': False, 'isProtected': False, 'isTimedOut': False, 'isVirtual': False, 'labeledCharset': 'Windows-1252', 'labeledExt': 'txt', 'labeledMime': 'text/plain', 'labeledName': 'text.txt', 'md5': '8d1e955b8b69b5e3a6457b27d76f4859', 'metadata': {}, 'sha256': 'de7599bf1096e6256b128160415582185f32a1e319363cd4d8479ad114a62f61', 'sizeDecodedBytes': 4436, 'structureId': '0', 'textExtracted': 'U0NBTEFSKDB4N2VmZTY3NjVmY2E4KQ==\n', 'urls': [{'isRewritten': True, 'src': ['urldefense'], 'url': 'http://www.agpd.es'}, {'src': ['filter'], 'url': 'https://urldefense.com/v3/__http:/www.agpd.es/__;!!LgHUZTGyrw!OyJxFSiaWHw2vf61qadlydxtTOOz6DVXmk4BaZDNDU2riFf1Qf04hG1yEtUBw11-KGJx3gTlCD1B3au7Npc-inVE8O_triBTqi4$'}, {'src': ['filter'], 'url': 'mailto:david@trujilloguiradoabogados.com'}]}, {'dataBase64': 'U0NBTEFSKDB4N2VmZTY2OGJiYzMwKQ==\n', 'detectedCharset': 'windows-1252', 'detectedExt': 'HTML', 'detectedMime': 'text/html', 'detectedName': 'text.html', 'detectedSizeBytes': 10364, 'disposition': 'inline', 'isArchive': False, 'isCorrupted': False, 'isDeleted': False, 'isProtected': False, 'isTimedOut': False, 'isVirtual': False, 'labeledCharset': 'Windows-1252', 'labeledExt': 'html', 'labeledMime': 'text/html', 'labeledName': 'text.html', 'md5': '918a08521797aab81b0479037ab918e1', 'metadata': {}, 'sha256': 'abb8863819a5710fcb108124c923265152d99dcb51c01a8918ac425ee51b681b', 'sizeDecodedBytes': 10364, 'structureId': '1', 'textExtracted': 'U0NBTEFSKDB4N2VmZGQyY2E4YjEwKQ==\n', 'urls': [{'src': ['filter'], 'url': 'https://urldefense.com/v3/__http:/www.agpd.es/__;!!LgHUZTGyrw!OyJxFSiaWHw2vf61qadlydxtTOOz6DVXmk4BaZDNDU2riFf1Qf04hG1yEtUBw11-KGJx3gTlCD1B3au7Npc-inVE8O_triBTqi4$'}, {'notRewrittenReason': 'isEmail', 'src': ['filter', 'urldefense'], 'url': 'mailto:david@trujilloguiradoabogados.com'}]}],2024-05-15T12:22:42.665984+0200,us,eur05-vi1-obe.outbound.protection.outlook.com,mail-vi1eur05on2111.outbound.protection.outlook.com,40.107.21.111,smtp:smtp,ok,ECDHE-RSA-AES256-GCM-SHA384,256.0,TLSv1.2,ramon@trujilloguiradoabogados.com,""['kevin.rodriguez@caixabank.com', 'scan@msp.secscan.xyz']"",""[{'action': 'set-header', 'module': 'access', 'rule': 'pp_external_tag'}, {'action': 'annotate-text', 'module': 'access', 'rule': 'pp_external_tag'}, {'action': 'continue', 'isFinal': True, 'module': 'access', 'rule': 'pp_external_tag'}, {'action': 'add-header', 'module': 'access', 'rule': 'eximator_inbound'}, {'action': 'add-rcpts', 'module': 'access', 'rule': 'eximator_inbound'}, {'action': 'continue', 'module': 'access', 'rule': 'eximator_inbound'}, {'action': 'add-header', 'module': 'av', 'rule': 'clean'}, {'action': 'continue', 'module': 'av', 'rule': 'clean'}, {'action': 'add-header', 'module': 'spam', 'rule': 'notspam'}]"",""['kevin.rodriguez@caixabank.com', 'scan@msp.secscan.xyz']"",continue,0.342158,""['en', 'es', 'pt', 'de', 'ro', 'it', 'fr', 'nl', 'dk']"",0.0,0.0,0.0,0.0,0.0,0.0,999.0,0.0,0.0,0.0,0.0,0.0,main-2405150069,8.19.0-2405010000,27095.0,internal,""['allow_relay', 'cbk_dominios_ficodo', 'cbk_inbound', 'default_inbound', 'i_caixabank_com', 'to_groupcbk_domains']"",['0'],0.0,<email>,m0133947.ppops.net,8.20.4.142,['Ramon Guirado <ramon@trujilloguiradoabogados.com>'],,['=?Windows-1252?Q?RE:_Gesti=F3n_cuenta_M=AA_del_Carmen_Torres_Huguet_36.48?=\r\n =?Windows-1252?Q?2.129-N?='],['KEVIN RODRIGUEZ ROMERO <kevin.rodriguez@caixabank.com>'],es,['Ramon Guirado <ramon@trujilloguiradoabogados.com>'],,['[EXTERNAL] RE: Gestión cuenta Mª del Carmen Torres Huguet 36.482.129-N'],['KEVIN RODRIGUEZ ROMERO <kevin.rodriguez@caixabank.com>'],['ramon@trujilloguiradoabogados.com'],,['kevin.rodriguez@caixabank.com'],25333.0,,,,,,,,,,,,,,,,,,,,['Ramon Guirado'],,,,,,,,,,,,,,,,1.0,2.0,2.0,15.0,,,,,,,,,,,,20.0,1.0,,,,,,,,,,,,,,,,,,,,,,,,,,,,,,,,,,,,,,,,,,,,,,,,,,,,,,,,,,,,,,,,,,,3,3,3,0,3,3,1,1,1,1,0,0,0,0,0"
",2024-05-15T12:00:08.057634+0200,,,,,,,,,,,,,,,,,,,,,,,,,,,,,,,,,,,,,m0133944.ppops.net,,,,,,,,,,,,,,,""2024-05-15T12:00:08.057634+02:00 m0133944 sendmail[8926]: 44F7R1n1018351: to=<scan@msp.secscan.xyz>, delay=00:00:01, xdelay=00:00:01, mailer=esmtp, tls_verify=FAIL, tls_version=TLSv1.2, cipher=ECDHE-RSA-AES256-GCM, pri=153233, relay=msp.secscan.xyz. [5.200.20.61], dsn=2.0.0, stat=Sent (Ok: queued)"",20200420.0,m0133944.ppops.net,00:00:01,2.0.0,esmtp,153233.0,msp.secscan.xyz. [5.200.20.61],Sent (Ok: queued),['<scan@msp.secscan.xyz>'],00:00:01,ECDHE-RSA-AES256-GCM,FAIL,TLSv1.2,,,,,,,,,,,,,,,,,,,,,,,,,,,,,,,,,,,,,,,,,,,,,,,,,,,,,,,,,,,,,,,,,,,,,,,,,,,,,,,,,,,,,,,,,,,,,,,,,,,,,,,,,0,0,0,0,0,0,15,0,0,15,0,0,0,0,0"
",2024-05-15T11:52:02.481501+0200,,,,,,,,,,,,,,,,,,,,,,,,,,,,,,,,,,,,,m0243692.ppops.net,,,,,,,,,,,,,,,""2024-05-15T11:52:02.481501+02:00 m0243692 sendmail[21472]: 44AF7eer031826: to=<estelasantos1200@gmail.com>, delay=4+18:05:52, xdelay=00:00:02, mailer=esmtp, tls_verify=OK, tls_version=TLSv1.2, cipher=ECDHE-RSA-AES128-GCM, pri=42758775, relay=alt3.gmail-smtp-in.l.google.com. [142.250.27.27], dsn=4.2.2, reply=452-4.2.2 The recipient's inbox is out of storage space. Please direct the, stat=Deferred: 452-4.2.2 The recipient's inbox is out of storage space. Please direct the"",20200420.0,m0243692.ppops.net,4+18:05:52,4.2.2,esmtp,42758775.0,alt3.gmail-smtp-in.l.google.com. [142.250.27.27],Deferred: 452-4.2.2 The recipient's inbox is out of storage space. Please direct the,['<estelasantos1200@gmail.com>'],00:00:02,ECDHE-RSA-AES128-GCM,OK,TLSv1.2,,,,,,,,,,,,,,,,,,,,,,,,,,,,,,,,,,,,,,,,,,,,,,,,,,,,,,,,,,,,,,,,,,,,,,,,,,,,,,,,,,,,,,,,,,,,,,,,,,,,,,,,,0,0,0,0,0,0,16,0,0,16,0,0,0,0,0"
",2024-05-15T12:12:12.707545+0200,,,,,,,,,,,,,,,,,,,,,,,,,,,,,,,,,,,,,m0133944.ppops.net,,,,,,,,,,,,,,,""2024-05-15T12:12:12.707545+02:00 m0133944 sendmail[7391]: 44F7RLCX019060: to=<natalia.garcia.r@caixabank.com>, delay=00:00:00, xdelay=00:00:00, mailer=esmtp, tls_verify=OK, tls_version=TLSv1.2, cipher=ECDHE-RSA-AES256-GCM, pri=213197, relay=eccgc-mail-onmicro...ction.outlook.com. [52.101.73.1], dsn=2.6.0, stat=Sent (<CAP-=5hkyTG0d_xO3RxB48w2ftZMKs0a3nf_dABQx6VON_52wQw@mail.gmail.com> [InternalId=7022271538131...R05MB10475.eurprd05.prod.outlook.com] 75970 bytes in 0.136, 542.282 KB/sec Queued mail for delivery)"",20200420.0,m0133944.ppops.net,00:00:00,2.6.0,esmtp,213197.0,eccgc-mail-onmicro...ction.outlook.com. [52.101.73.1],Sent (<CAP-=5hkyTG0d_xO3RxB48w2ftZMKs0a3nf_dABQx6VON_52wQw@mail.gmail.com> [InternalId=7022271538131...R05MB10475.eurprd05.prod.outlook.com] 75970 bytes in 0.136,['<natalia.garcia.r@caixabank.com>'],00:00:00,ECDHE-RSA-AES256-GCM,OK,TLSv1.2,,,,,,,,,,,,,,,,,,,,,,,,,,,,,,,,,,,,,,,,,,,,,,,,,,,,,,,,,,,,,,,,,,,,,,,,,,,,,,,,,,,,,,,,,,,,,,,,,,,,,,,,,0,0,0,0,0,0,17,0,0,17,0,0,0,0,0"
",2024-05-15T12:00:58.019128+0200,,,,,,,,,,,,,,,,,,,,,,,,,,,,,,,,,,,,,m0133946.ppops.net,,,,,,,,,,,,,,,""2024-05-15T12:00:58.019128+02:00 m0133946 sendmail[21236]: 44F7KgfH021236: from=<arquitectura.elastic@caixabanktech.com>, size=3075, class=0, nrcpts=2, msgid=send_email_check-metricbeat-queues-pro-ocp_6795c3c1-db06-4f0e-aa80-084c88e4f877-2024-05-15T10:00:56.616742557Z_216, proto=ESMTP, daemon=MTA, tls_verify=NONE, tls_version=NONE, cipher=NONE, auth=NONE, relay=m0133946.ppops.net [127.0.0.1]"",20200420.0,m0133946.ppops.net,,,,,m0133946.ppops.net [127.0.0.1],,,,NONE,NONE,NONE,,,,,,,NONE,0.0,MTA,<arquitectura.elastic@caixabanktech.com>,2.0,ESMTP,3075.0,,,,,,,,,,,,,,,,,,,,,,,,,,,,,,,,,,,,,,,,,,,,,,,,,,,,,,,,,,,,,,,,,,,,,,,,,,,,,,,,,,,,,,,,,,,,0,0,0,0,0,0,18,0,0,18,4,0,0,0,0"
",2024-05-15T11:24:12.984556+0200,,,,,,,,,,,,,,,,,,,,,,,,,,,,,,,,,,,,,m0133942.ppops.net,,,,,,,,,,,,,,,""2024-05-15T11:24:12.984556+02:00 m0133942 sendmail[32716]: 44F4snqK026036: to=<soporte.caixabank@grupobc.com>, delay=00:00:07, xdelay=00:00:07, mailer=esmtp, tls_verify=OK, tls_version=TLSv1.2, cipher=ECDHE-RSA-AES128-GCM, pri=433303, relay=aspmx.l.google.com. [172.253.115.27], dsn=2.0.0, stat=Sent (OK 1715765052 6a1803df08f44-6a15f2b6e31si138862026d6.404 - gsmtp)"",20200420.0,m0133942.ppops.net,00:00:07,2.0.0,esmtp,433303.0,aspmx.l.google.com. [172.253.115.27],Sent (OK 1715765052 6a1803df08f44-6a15f2b6e31si138862026d6.404 - gsmtp),['<soporte.caixabank@grupobc.com>'],00:00:07,ECDHE-RSA-AES128-GCM,OK,TLSv1.2,,,,,,,,,,,,,,,,,,,,,,,,,,,,,,,,,,,,,,,,,,,,,,,,,,,,,,,,,,,,,,,,,,,,,,,,,,,,,,,,,,,,,,,,,,,,,,,,,,,,,,,,,0,0,0,0,0,0,19,0,0,19,0,0,0,0,0"
",2024-05-15T12:12:54.331312+0200,,,,,,,,,,,,,,,,,,,,,,,,,,,,,,,,,,,,,m0133947.ppops.net,,,,,,,,,,,,,,,""2024-05-15T12:12:54.331312+02:00 m0133947 sendmail[30015]: 44F3urrj029178: to=<yeison.berbesi@icloud.com>, delay=00:00:04, xdelay=00:00:04, mailer=esmtp, tls_verify=OK, tls_version=TLSv1.2, cipher=ECDHE-RSA-AES256-GCM, pri=152468, relay=mx02.mail.icloud.com. [17.57.156.30], dsn=2.0.0, stat=Sent (Ok: queued as DE57E4B001D4)"",20200420.0,m0133947.ppops.net,00:00:04,2.0.0,esmtp,152468.0,mx02.mail.icloud.com. [17.57.156.30],Sent (Ok: queued as DE57E4B001D4),['<yeison.berbesi@icloud.com>'],00:00:04,ECDHE-RSA-AES256-GCM,OK,TLSv1.2,,,,,,,,,,,,,,,,,,,,,,,,,,,,,,,,,,,,,,,,,,,,,,,,,,,,,,,,,,,,,,,,,,,,,,,,,,,,,,,,,,,,,,,,,,,,,,,,,,,,,,,,,0,0,0,0,0,0,20,0,0,20,0,0,0,0,0"
",2024-05-15T12:16:18.675509+0200,,,,,,,,,,,,,,,,,,,,,,,,,,,,,,,,,,,,,m0133940.ppops.net,,,,,,,,,,,,,,,""2024-05-15T12:16:18.675509+02:00 m0133940 sendmail[16713]: 44C8JrWm029811: to=<sdas@dasds.com>, delay=3+01:01:33, xdelay=00:02:00, mailer=esmtp, tls_verify=NONE, tls_version=NONE, cipher=NONE, pri=24182544, relay=dasds.com. [52.71.57.184], dsn=4.4.1, stat=Deferred: Connection timed out with dasds.com."",20200420.0,m0133940.ppops.net,3+01:01:33,4.4.1,esmtp,24182544.0,dasds.com. [52.71.57.184],Deferred: Connection timed out with dasds.com.,['<sdas@dasds.com>'],00:02:00,NONE,NONE,NONE,,,,,,,,,,,,,,,,,,,,,,,,,,,,,,,,,,,,,,,,,,,,,,,,,,,,,,,,,,,,,,,,,,,,,,,,,,,,,,,,,,,,,,,,,,,,,,,,,,,,,,,,,0,0,0,0,0,0,21,0,0,21,0,0,0,0,0"
",2024-05-15T12:08:55.055292+0200,,,,,,,,,,,,,,,,,,,,,,,,,,,,,,,,,,,,,m0243691.ppops.net,,,,,,,,,,,,,,,""2024-05-15T12:08:55.055292+02:00 m0243691 sendmail[29913]: 44FA8sFG029913: to=realpostmaster, ctladdr=support (8048/8048), delay=00:00:01, xdelay=00:00:01, mailer=relay, tls_verify=FAIL, tls_version=TLSv1.2, cipher=ECDHE-RSA-AES256-GCM, pri=57353, relay=[127.0.0.1] [127.0.0.1], dsn=2.0.0, stat=Sent (3y45sqc9gd-1 Message accepted for delivery)"",20200420.0,m0243691.ppops.net,00:00:01,2.0.0,relay,57353.0,[127.0.0.1] [127.0.0.1],Sent (3y45sqc9gd-1 Message accepted for delivery),['realpostmaster'],00:00:01,ECDHE-RSA-AES256-GCM,FAIL,TLSv1.2,,,,,,,,,,,,,,,,,,,,,,,,,,,,,,,,,,,,,,,,,,,,,,,,,,,,,,,,,,,,,,,,,,,,,,,,,,,,,,,,,,support (8048/8048),,,,,,,,,,,,,,,,,,,,,,,0,0,0,0,0,0,22,0,0,22,0,0,0,0,0"
",2024-05-15T11:38:06.583776+0200,,,,,,,,,,,,,,,,,,,,,,,,,,,,,,,,,,,,,m0243692.ppops.net,,,,,,,,,,,,,,,""2024-05-15T11:38:06.583776+02:00 m0243692 sendmail[20655]: 44F3HtcM015384: to=<raul.neto@ramiroavalesa.pt>, delay=00:00:16, xdelay=00:00:01, mailer=esmtp, tls_verify=OK, tls_version=TLSv1.2, cipher=ECDHE-RSA-AES256-GCM, pri=1627562, relay=smtp.novisnet.pt. [195.170.168.49], dsn=5.1.1, reply=550 5.1.1 <raul.neto@ramiroavalesa.pt>: Recipient address rejected: User unknown in virtual mailbox table, stat=User unknown"",20200420.0,m0243692.ppops.net,00:00:16,5.1.1,esmtp,1627562.0,smtp.novisnet.pt. [195.170.168.49],User unknown,['<raul.neto@ramiroavalesa.pt>'],00:00:01,ECDHE-RSA-AES256-GCM,OK,TLSv1.2,,,,,,,,,,,,,,,,,,,,,,,,,,,,,,,,,,,,,,,,,,,,,,,,,,,,,,,,,,,,,,,,,,,,,,,,,,,,,,,,,,,,,,,,,,,,,,,,,,,,,,,,,0,0,0,0,0,0,23,0,0,23,0,0,0,0,0"
",2024-05-15T12:03:50.260432+0200,,,,,,,,,,,,,,,,,,,,,,,,,,,,,,,,,,,,,m0133947.ppops.net,,,,,,,,,,,,,,,""2024-05-15T12:03:50.260432+02:00 m0133947 sendmail[2764]: 44D4HojB029819: to=<joseluisciria@gmail.com>, delay=2+02:48:31, xdelay=00:00:05, mailer=esmtp, tls_verify=OK, tls_version=TLSv1.2, cipher=ECDHE-RSA-AES128-GCM, pri=18699076, relay=alt3.gmail-smtp-in.l.google.com. [74.125.200.27], dsn=4.2.2, reply=452-4.2.2 The recipient's inbox is out of storage space. Please direct the, stat=Deferred: 452-4.2.2 The recipient's inbox is out of storage space. Please direct the"",20200420.0,m0133947.ppops.net,2+02:48:31,4.2.2,esmtp,18699076.0,alt3.gmail-smtp-in.l.google.com. [74.125.200.27],Deferred: 452-4.2.2 The recipient's inbox is out of storage space. Please direct the,['<joseluisciria@gmail.com>'],00:00:05,ECDHE-RSA-AES128-GCM,OK,TLSv1.2,,,,,,,,,,,,,,,,,,,,,,,,,,,,,,,,,,,,,,,,,,,,,,,,,,,,,,,,,,,,,,,,,,,,,,,,,,,,,,,,,,,,,,,,,,,,,,,,,,,,,,,,,0,0,0,0,0,0,24,0,0,24,0,0,0,0,0"
",2024-05-15T12:16:00.168659+0200,,,,,,,,,,,,,,,,,,,,,,,,,,,,,,,,,,,,,m0133944.ppops.net,,,,,,,,,,,,,,,""2024-05-15T12:16:00.168659+02:00 m0133944 sendmail[15859]: 44F7Pqp2016059: to=<lidia.palenciano@sdggroup.com>, delay=00:00:01, xdelay=00:00:01, mailer=esmtp, tls_verify=OK, tls_version=TLSv1.2, cipher=ECDHE-RSA-AES128-GCM, pri=1628108, relay=aspmx.l.google.com. [142.250.102.26], dsn=5.2.1, reply=550-5.2.1 The email account that you tried to reach is inactive. For more, stat=User unknown"",20200420.0,m0133944.ppops.net,00:00:01,5.2.1,esmtp,1628108.0,aspmx.l.google.com. [142.250.102.26],User unknown,['<lidia.palenciano@sdggroup.com>'],00:00:01,ECDHE-RSA-AES128-GCM,OK,TLSv1.2,,,,,,,,,,,,,,,,,,,,,,,,,,,,,,,,,,,,,,,,,,,,,,,,,,,,,,,,,,,,,,,,,,,,,,,,,,,,,,,,,,,,,,,,,,,,,,,,,,,,,,,,,0,0,0,0,0,0,25,0,0,25,0,0,0,0,0"
",2024-05-15T11:26:31.995908+0200,,,,,,,,,,,,,,,,,,,,,,,,,,,,,,,,,,,,,m0243693.ppops.net,,,,,,,,,,,,,,,""2024-05-15T11:26:31.995908+02:00 m0243693 sendmail[8585]: 44F7ODmr001722: to=<emilia.ceu.dias@bancobpi.pt>, delay=00:00:00, xdelay=00:00:00, mailer=esmtp, tls_verify=OK, tls_version=TLSv1.2, cipher=ECDHE-RSA-AES256-GCM, pri=250813, relay=mmbpidmzin.svb.bancobpi.pt. [185.26.46.49], dsn=2.0.0, stat=Sent (Ok: queued as E457B80041)"",20200420.0,m0243693.ppops.net,00:00:00,2.0.0,esmtp,250813.0,mmbpidmzin.svb.bancobpi.pt. [185.26.46.49],Sent (Ok: queued as E457B80041),['<emilia.ceu.dias@bancobpi.pt>'],00:00:00,ECDHE-RSA-AES256-GCM,OK,TLSv1.2,,,,,,,,,,,,,,,,,,,,,,,,,,,,,,,,,,,,,,,,,,,,,,,,,,,,,,,,,,,,,,,,,,,,,,,,,,,,,,,,,,,,,,,,,,,,,,,,,,,,,,,,,0,0,0,0,0,0,26,0,0,26,0,0,0,0,0"
",2024-05-15T12:02:12.084256+0200,,,,,,,,,,,,,,,,,,,,,,,,,,,,,,,,,,,,,m0133944.ppops.net,,,,,,,,,,,,,,,""2024-05-15T12:02:12.084256+02:00 m0133944 sendmail[10591]: 44CNkXN3030916: to=<mmyleneca1@gmail.com>, delay=2+10:12:31, xdelay=00:00:10, mailer=esmtp, tls_verify=OK, tls_version=TLSv1.2, cipher=ECDHE-RSA-AES128-GCM, pri=22215897, relay=alt4.gmail-smtp-in.l.google.com. [142.250.157.26], dsn=4.2.2, reply=452-4.2.2 The recipient's inbox is out of storage space. Please direct the, stat=Deferred: 452-4.2.2 The recipient's inbox is out of storage space. Please direct the"",20200420.0,m0133944.ppops.net,2+10:12:31,4.2.2,esmtp,22215897.0,alt4.gmail-smtp-in.l.google.com. [142.250.157.26],Deferred: 452-4.2.2 The recipient's inbox is out of storage space. Please direct the,['<mmyleneca1@gmail.com>'],00:00:10,ECDHE-RSA-AES128-GCM,OK,TLSv1.2,,,,,,,,,,,,,,,,,,,,,,,,,,,,,,,,,,,,,,,,,,,,,,,,,,,,,,,,,,,,,,,,,,,,,,,,,,,,,,,,,,,,,,,,,,,,,,,,,,,,,,,,,0,0,0,0,0,0,27,0,0,27,0,0,0,0,0"
"[{'dataBase64': 'U0NBTEFSKDB4N2YwNmRhMTg3YTY4KQ==\n', 'detectedCharset': 'utf-8', 'detectedExt': 'HTML', 'detectedMime': 'text/html', 'detectedName': 'text.html', 'detectedSizeBytes': 23868, 'disposition': 'inline', 'isArchive': False, 'isCorrupted': False, 'isDeleted': False, 'isProtected': False, 'isTimedOut': False, 'isVirtual': False, 'labeledCharset': 'utf-8', 'labeledExt': 'html', 'labeledMime': 'text/html', 'labeledName': 'text.html', 'md5': 'c959bcf183000935afa2eaeccd05ad96', 'metadata': {'title': 'Banco BPI', 'viewport': 'width=device-width, initial-scale=1.0', 'x-ua-compatible': 'IE=edge'}, 'sha256': 'bf84dd6ce6968520f9727e3a5dbce7ae7fe1a54bfe9da9b7cf85f81ce0111d2e', 'sizeDecodedBytes': 23868, 'structureId': '0', 'textExtracted': 'U0NBTEFSKDB4N2YwNzQ5ZThlNjQ4KQ==\n', 'urls': [{'src': ['filter'], 'url': 'https://www.bancobpi.pt/grupo-bpi/onde-estamos/rede-balcoes'}, {'src': ['filter'], 'url': 'https://www.bancobpi.pt/contentservice/getContent?documentName=PR_UCMS02060238'}, {'src': ['filter'], 'url': 'https://www.bancobpi.pt'}, {'src': ['filter'], 'url': 'http://www.bancobpi.pt'}, {'src': ['filter'], 'url': 'https://www.bancobpi.pt/contentservice/getContent?documentName=PR_UCMS02060237'}, {'src': ['filter'], 'url': 'https://www.youtube.com/c/bancobpi'}, {'src': ['filter'], 'url': 'https://www.bancobpi.pt/contentservice/getContent?documentName=PR_UCMS02060241'}, {'src': ['filter'], 'url': 'https://www.instagram.com/bancobpi/'}, {'src': ['filter'], 'url': 'mailto:bancobpi@bancobpi.pt'}, {'src': ['filter'], 'url': 'https://www.bancobpi.pt/contentservice/getContent?documentName=PR_UCMS02060242'}, {'src': ['filter'], 'url': 'https://www.bancobpi.pt/CW_SP_Common/img/x86_logo_bpi_caixabank.png'}, {'src': ['filter'], 'url': 'https://www.bancobpi.pt/contentservice/getContent?documentName=PR_UCMS02060240'}, {'src': ['filter'], 'url': 'https://www.bancobpi.pt/contentservice/getContent?documentName=PR_UCMS02060239'}, {'src': ['filter'], 'url': 'https://www.facebook.com/bancobpi/'}, {'src': ['filter'], 'url': 'https://www.linkedin.com/company/bancobpi/'}, {'src': ['filter'], 'url': 'https://www.bancobpi.pt/contentservice/getContent?documentName=PR_UCMS02060243'}, {'src': ['filter'], 'url': 'https://twitter.com/banco_bpi'}]}],2024-05-15T11:45:00.238290+0200,es,mmbpiasp04s2.netgbpi.ext,[185.26.46.50],185.26.46.50,smtp:smtp,fail,,,,mailBPI@mail.bancobpi.pt,""['anafmatos6@gmail.com', 'scan@msp.secscan.xyz']"",""[{'action': 'execute', 'module': 'access', 'rule': 'byside_mail_bancobpi_spam'}, {'action': 'add-rcpts', 'module': 'access', 'rule': 'eximator_outbound'}, {'action': 'continue', 'isFinal': True, 'module': 'access', 'rule': 'eximator_outbound'}, {'action': 'add-header', 'module': 'av', 'rule': 'outbound_clean'}, {'action': 'continue', 'module': 'av', 'rule': 'outbound_clean'}, {'action': 'add-header', 'module': 'spam', 'rule': 'outbound_safe'}]"",""['anafmatos6@gmail.com', 'scan@msp.secscan.xyz']"",continue,0.33344,""['en', 'pt', 'es', 'fr', 'de', 'se']"",0.0,30.0,0.0,30.0,0.0,100.0,-999.0,0.0,100.0,0.0,100.0,0.0,main-2405150064,8.19.0-2405010000,34707.0,outbound,""['allow_relay', 'allowed_bpi', 'cbk_efw_incidents', 'outbound', 'outbound_bpi', 'owned_domains_in_from', 'r_bancobpi_pt_o', 'r_mail_bancobpi_pt_o', 'to_webmail']"",['0'],0.0,<email>,m0243692.ppops.net,8.20.4.142,""['""""Banco BPI <noreply@mail.bancobpi.pt>"""" <mailBPI@mail.bancobpi.pt>']"",""['""""Banco BPI"""" <noreply@mail.bancobpi.pt>']"",['=?utf-8?B?QXZpc28gZGUgUGFnYW1lbnRvIGRlIFNlcnZpw6dvcyBSZWdp?=\r\n =?utf-8?B?c3RhZG8=?='],['Anafmatos6@gmail.com'],pt,""['""""Banco BPI <noreply@mail.bancobpi.pt>"""" <mailBPI@mail.bancobpi.pt>']"",""['""""Banco BPI"""" <noreply@mail.bancobpi.pt>']"",['Aviso de Pagamento de Serviços Registado'],['Anafmatos6@gmail.com'],['mailBPI@mail.bancobpi.pt'],['noreply@mail.bancobpi.pt'],['Anafmatos6@gmail.com'],33777.0,,,,,,,,,,,,,,,,,,,,['Banco BPI <noreply@mail.bancobpi.pt>'],,,,,,,,safe,,,,,,,,,,,,,,,,,,,,,,,,,,,,,,,,,,,,,,,,,,,,,,,,,,,,,,,,,,,,,,,,,,,,,,,,,,,,,,,,,,,,,,,,,,,4,4,4,0,4,4,1,1,1,1,0,0,0,0,0"
",2024-05-15T12:19:28.548161+0200,,,,,,,,,,,,,,,,,,,,,,,,,,,,,,,,,,,,,m0133939.ppops.net,,,,,,,,,,,,,,,""2024-05-15T12:19:28.548161+02:00 m0133939 sendmail[12330]: 44F3wWLd017057: to=<gema.gomez.gudina@gmail.com>, delay=03:12:56, xdelay=00:00:02, mailer=esmtp, tls_verify=OK, tls_version=TLSv1.2, cipher=ECDHE-RSA-AES128-GCM, pri=968905, relay=alt2.gmail-smtp-in.l.google.com. [173.194.219.27], dsn=4.2.2, reply=452-4.2.2 The recipient's inbox is out of storage space. Please direct the, stat=Deferred: 452-4.2.2 The recipient's inbox is out of storage space. Please direct the"",20200420.0,m0133939.ppops.net,03:12:56,4.2.2,esmtp,968905.0,alt2.gmail-smtp-in.l.google.com. [173.194.219.27],Deferred: 452-4.2.2 The recipient's inbox is out of storage space. Please direct the,['<gema.gomez.gudina@gmail.com>'],00:00:02,ECDHE-RSA-AES128-GCM,OK,TLSv1.2,,,,,,,,,,,,,,,,,,,,,,,,,,,,,,,,,,,,,,,,,,,,,,,,,,,,,,,,,,,,,,,,,,,,,,,,,,,,,,,,,,,,,,,,,,,,,,,,,,,,,,,,,0,0,0,0,0,0,28,0,0,28,0,0,0,0,0"
",2024-05-15T12:22:20.094668+0200,,,,,,,,,,,,,,,,,,,,,,,,,,,,,,,,,,,,,m0133943.ppops.net,,,,,,,,,,,,,,,""2024-05-15T12:22:20.094668+02:00 m0133943 sendmail[9333]: 44DA35Au029588: to=<vannys2007@gmail.com>, delay=1+22:50:22, xdelay=00:00:12, mailer=esmtp, tls_verify=OK, tls_version=TLSv1.2, cipher=ECDHE-RSA-AES128-GCM, pri=17348868, relay=alt4.gmail-smtp-in.l.google.com. [142.250.157.26], dsn=4.2.2, reply=452-4.2.2 The recipient's inbox is out of storage space. Please direct the, stat=Deferred: 452-4.2.2 The recipient's inbox is out of storage space. Please direct the"",20200420.0,m0133943.ppops.net,1+22:50:22,4.2.2,esmtp,17348868.0,alt4.gmail-smtp-in.l.google.com. [142.250.157.26],Deferred: 452-4.2.2 The recipient's inbox is out of storage space. Please direct the,['<vannys2007@gmail.com>'],00:00:12,ECDHE-RSA-AES128-GCM,OK,TLSv1.2,,,,,,,,,,,,,,,,,,,,,,,,,,,,,,,,,,,,,,,,,,,,,,,,,,,,,,,,,,,,,,,,,,,,,,,,,,,,,,,,,,,,,,,,,,,,,,,,,,,,,,,,,0,0,0,0,0,0,29,0,0,29,0,0,0,0,0"
",2024-05-15T11:36:17.719422+0200,,,,,,,,,,,,,,,,,,,,,,,,,,,,,,,,,,,,,m0133943.ppops.net,,,,,,,,,,,,,,,""2024-05-15T11:36:17.719422+02:00 m0133943 sendmail[26008]: 44F3NkSe009289: to=<scan@msp.secscan.xyz>, delay=00:00:01, xdelay=00:00:00, mailer=esmtp, tls_verify=FAIL, tls_version=TLSv1.2, cipher=ECDHE-RSA-AES256-GCM, pri=158980, relay=msp2.secscan.xyz. [185.52.15.29], dsn=2.0.0, stat=Sent (Ok: queued)"",20200420.0,m0133943.ppops.net,00:00:01,2.0.0,esmtp,158980.0,msp2.secscan.xyz. [185.52.15.29],Sent (Ok: queued),['<scan@msp.secscan.xyz>'],00:00:00,ECDHE-RSA-AES256-GCM,FAIL,TLSv1.2,,,,,,,,,,,,,,,,,,,,,,,,,,,,,,,,,,,,,,,,,,,,,,,,,,,,,,,,,,,,,,,,,,,,,,,,,,,,,,,,,,,,,,,,,,,,,,,,,,,,,,,,,0,0,0,0,0,0,30,0,0,30,0,0,0,0,0"
",2024-05-15T11:33:34.951393+0200,,,,,,,,,,,,,,,,,,,,,,,,,,,,,,,,,,,,,m0133938.ppops.net,,,,,,,,,,,,,,,""2024-05-15T11:33:34.951393+02:00 m0133938 sendmail[1950]: 44E3oYpW030459: to=<hogar@siniestros.segurcaixaadeslas.es>, delay=1+01:40:26, xdelay=00:00:00, mailer=esmtp, tls_verify=NONE, tls_version=NONE, cipher=NONE, pri=7246066, relay=smtp.multiasistencia.com., dsn=4.0.0, stat=Deferred: Connection timed out with smtp.multiasistencia.com."",20200420.0,m0133938.ppops.net,1+01:40:26,4.0.0,esmtp,7246066.0,smtp.multiasistencia.com.,Deferred: Connection timed out with smtp.multiasistencia.com.,['<hogar@siniestros.segurcaixaadeslas.es>'],00:00:00,NONE,NONE,NONE,,,,,,,,,,,,,,,,,,,,,,,,,,,,,,,,,,,,,,,,,,,,,,,,,,,,,,,,,,,,,,,,,,,,,,,,,,,,,,,,,,,,,,,,,,,,,,,,,,,,,,,,,0,0,0,0,0,0,31,0,0,31,0,0,0,0,0"
",2024-05-15T11:34:56.840429+0200,,,,,,,,,,,,,,,,,,,,,,,,,,,,,,,,,,,,,m0133946.ppops.net,,,,,,,,,,,,,,,""2024-05-15T11:34:56.840429+02:00 m0133946 sendmail[9308]: 44E9vimZ006045: to=<bounce@email.caixabank.com>, delay=19:21:51, xdelay=00:00:00, mailer=esmtp, tls_verify=NONE, tls_version=NONE, cipher=NONE, pri=8142695, relay=inbound.campaign.adobe.com. [54.73.30.101], dsn=4.0.0, stat=Deferred"",20200420.0,m0133946.ppops.net,19:21:51,4.0.0,esmtp,8142695.0,inbound.campaign.adobe.com. [54.73.30.101],Deferred,['<bounce@email.caixabank.com>'],00:00:00,NONE,NONE,NONE,,,,,,,,,,,,,,,,,,,,,,,,,,,,,,,,,,,,,,,,,,,,,,,,,,,,,,,,,,,,,,,,,,,,,,,,,,,,,,,,,,,,,,,,,,,,,,,,,,,,,,,,,0,0,0,0,0,0,32,0,0,32,0,0,0,0,0"
",2024-05-15T12:11:47.424519+0200,,,,,,,,,,,,,,,,,,,,,,,,,,,,,,,,,,,,,m0133947.ppops.net,,,,,,,,,,,,,,,""2024-05-15T12:11:47.424519+02:00 m0133947 sendmail[26999]: 44F7IvDO026999: from=<gestion.eventos@caixabank.com>, size=21969, class=0, nrcpts=2, msgid=<504749862.186.1715767905984@monico-monico-pro-0.monico-monico-pro.cxb-monico-pro.svc.cluster.local>, proto=ESMTP, daemon=MTA, tls_verify=NONE, tls_version=NONE, cipher=NONE, auth=NONE, relay=m0133947.ppops.net [127.0.0.1]"",20200420.0,m0133947.ppops.net,,,,,m0133947.ppops.net [127.0.0.1],,,,NONE,NONE,NONE,,,,,,,NONE,0.0,MTA,<gestion.eventos@caixabank.com>,2.0,ESMTP,21969.0,,,,,,,,,,,,,,,,,,,,,,,,,,,,,,,,,,,,,,,,,,,,,,,,,,,,,,,,,,,,,,,,,,,,,,,,,,,,,,,,,,,,,,,,,,,,0,0,0,0,0,0,33,0,0,33,5,0,0,0,0"
",2024-05-15T11:29:00.342063+0200,,,,,,,,,,,,,,,,,,,,,,,,,,,,,,,,,,,,,m0243692.ppops.net,,,,,,,,,,,,,,,""2024-05-15T11:29:00.342063+02:00 m0243692 sendmail[21470]: 44DC1Pqs002766: to=<rajibahmed453@gmail.com>, delay=1+18:10:53, xdelay=00:00:04, mailer=esmtp, tls_verify=OK, tls_version=TLSv1.2, cipher=ECDHE-RSA-AES128-GCM, pri=16763420, relay=alt4.gmail-smtp-in.l.google.com. [142.250.153.27], dsn=4.2.2, reply=452-4.2.2 The recipient's inbox is out of storage space. Please direct the, stat=Deferred: 452-4.2.2 The recipient's inbox is out of storage space. Please direct the"",20200420.0,m0243692.ppops.net,1+18:10:53,4.2.2,esmtp,16763420.0,alt4.gmail-smtp-in.l.google.com. [142.250.153.27],Deferred: 452-4.2.2 The recipient's inbox is out of storage space. Please direct the,['<rajibahmed453@gmail.com>'],00:00:04,ECDHE-RSA-AES128-GCM,OK,TLSv1.2,,,,,,,,,,,,,,,,,,,,,,,,,,,,,,,,,,,,,,,,,,,,,,,,,,,,,,,,,,,,,,,,,,,,,,,,,,,,,,,,,,,,,,,,,,,,,,,,,,,,,,,,,0,0,0,0,0,0,34,0,0,34,0,0,0,0,0"
",2024-05-15T12:15:14.893098+0200,,,,,,,,,,,,,,,,,,,,,,,,,,,,,,,,,,,,,m0133945.ppops.net,,,,,,,,,,,,,,,2024-05-15T12:15:14.893098+02:00 m0133945 sendmail[12876]: 44F7HfVi001166: 44FAFEvF012876: DSN: User unknown,20200420.0,m0133945.ppops.net,,,,,,,,,,,,,,,,,,,,,,,,,,,,,,,,,,,,,,,,,,,,,,,,,,,,,,,,,,,,,,,,,,,,,,,,,,,,,,,,,,,,,,,,,,,,,,,,,,,,,,,,,,,,,,,,,,,,0,0,0,0,0,0,35,0,0,35,0,0,0,0,0"
",2024-05-15T12:02:09.897039+0200,,,,,,,,,,,,,,,,,,,,,,,,,,,,,,,,,,,,,m0243692.ppops.net,,,,,,,,,,,,,,,""2024-05-15T12:02:09.897039+02:00 m0243692 sendmail[17495]: 44EGZDGo004683: to=<sdas@dasds.com>, delay=17:07:32, xdelay=00:02:00, mailer=esmtp, tls_verify=NONE, tls_version=NONE, cipher=NONE, pri=6182367, relay=dasds.com. [54.209.32.212], dsn=4.4.1, stat=Deferred: Connection timed out with dasds.com."",20200420.0,m0243692.ppops.net,17:07:32,4.4.1,esmtp,6182367.0,dasds.com. [54.209.32.212],Deferred: Connection timed out with dasds.com.,['<sdas@dasds.com>'],00:02:00,NONE,NONE,NONE,,,,,,,,,,,,,,,,,,,,,,,,,,,,,,,,,,,,,,,,,,,,,,,,,,,,,,,,,,,,,,,,,,,,,,,,,,,,,,,,,,,,,,,,,,,,,,,,,,,,,,,,,0,0,0,0,0,0,36,0,0,36,0,0,0,0,0"
",2024-05-15T12:04:59.809651+0200,,,,,,,,,,,,,,,,,,,,,,,,,,,,,,,,,,,,,m0133944.ppops.net,,,,,,,,,,,,,,,""2024-05-15T12:04:59.809651+02:00 m0133944 sendmail[14340]: 44DDoMHL020326: to=<IRINASOFIARODRIGUES21@GMAIL.COM>, delay=1+19:52:43, xdelay=00:00:08, mailer=esmtp, tls_verify=OK, tls_version=TLSv1.2, cipher=ECDHE-RSA-AES128-GCM, pri=17198795, relay=alt3.gmail-smtp-in.l.google.com. [74.125.200.27], dsn=4.2.2, reply=452-4.2.2 The recipient's inbox is out of storage space. Please direct the, stat=Deferred: 452-4.2.2 The recipient's inbox is out of storage space. Please direct the"",20200420.0,m0133944.ppops.net,1+19:52:43,4.2.2,esmtp,17198795.0,alt3.gmail-smtp-in.l.google.com. [74.125.200.27],Deferred: 452-4.2.2 The recipient's inbox is out of storage space. Please direct the,['<IRINASOFIARODRIGUES21@GMAIL.COM>'],00:00:08,ECDHE-RSA-AES128-GCM,OK,TLSv1.2,,,,,,,,,,,,,,,,,,,,,,,,,,,,,,,,,,,,,,,,,,,,,,,,,,,,,,,,,,,,,,,,,,,,,,,,,,,,,,,,,,,,,,,,,,,,,,,,,,,,,,,,,0,0,0,0,0,0,37,0,0,37,0,0,0,0,0"
",2024-05-15T12:07:13.431473+0200,,,,,,,,,,,,,,,,,,,,,,,,,,,,,,,,,,,,,m0133945.ppops.net,,,,,,,,,,,,,,,""2024-05-15T12:07:13.431473+02:00 m0133945 sendmail[27309]: 44F7P6Ab012540: to=<scan@msp.secscan.xyz>, delay=00:00:01, xdelay=00:00:00, mailer=esmtp, tls_verify=FAIL, tls_version=TLSv1.2, cipher=ECDHE-RSA-AES256-GCM, pri=153835, relay=msp.secscan.xyz. [5.200.20.61], dsn=2.0.0, stat=Sent (Ok: queued)"",20200420.0,m0133945.ppops.net,00:00:01,2.0.0,esmtp,153835.0,msp.secscan.xyz. [5.200.20.61],Sent (Ok: queued),['<scan@msp.secscan.xyz>'],00:00:00,ECDHE-RSA-AES256-GCM,FAIL,TLSv1.2,,,,,,,,,,,,,,,,,,,,,,,,,,,,,,,,,,,,,,,,,,,,,,,,,,,,,,,,,,,,,,,,,,,,,,,,,,,,,,,,,,,,,,,,,,,,,,,,,,,,,,,,,0,0,0,0,0,0,38,0,0,38,0,0,0,0,0"
",2024-05-15T11:28:24.723948+0200,,,,,,,,,,,,,,,,,,,,,,,,,,,,,,,,,,,,,m0243694.ppops.net,,,,,,,,,,,,,,,""2024-05-15T11:28:24.723948+02:00 m0243694 sendmail[25591]: 44F7X3Tc024424: to=<scan@msp.secscan.xyz>, delay=00:00:06, xdelay=00:00:00, mailer=esmtp, tls_verify=FAIL, tls_version=TLSv1.2, cipher=ECDHE-RSA-AES256-GCM, pri=4732450, relay=msp2.secscan.xyz. [185.52.15.29], dsn=2.0.0, stat=Sent (Ok: queued)"",20200420.0,m0243694.ppops.net,00:00:06,2.0.0,esmtp,4732450.0,msp2.secscan.xyz. [185.52.15.29],Sent (Ok: queued),['<scan@msp.secscan.xyz>'],00:00:00,ECDHE-RSA-AES256-GCM,FAIL,TLSv1.2,,,,,,,,,,,,,,,,,,,,,,,,,,,,,,,,,,,,,,,,,,,,,,,,,,,,,,,,,,,,,,,,,,,,,,,,,,,,,,,,,,,,,,,,,,,,,,,,,,,,,,,,,0,0,0,0,0,0,39,0,0,39,0,0,0,0,0"
",2024-05-15T11:55:57.314431+0200,,,,,,,,,,,,,,,,,,,,,,,,,,,,,,,,,,,,,m0133946.ppops.net,,,,,,,,,,,,,,,""2024-05-15T11:55:57.314431+02:00 m0133946 sendmail[12334]: 44AAecmJ029127: to=<peticiones_rec@cx.es.sogeti.com>, delay=4+18:01:18, xdelay=00:02:00, mailer=esmtp, tls_verify=NONE, tls_version=NONE, cipher=NONE, pri=38673116, relay=mailcx.es.sogeti.com. [213.229.149.138], dsn=4.4.1, stat=Deferred: Connection timed out with mailcx.es.sogeti.com."",20200420.0,m0133946.ppops.net,4+18:01:18,4.4.1,esmtp,38673116.0,mailcx.es.sogeti.com. [213.229.149.138],Deferred: Connection timed out with mailcx.es.sogeti.com.,['<peticiones_rec@cx.es.sogeti.com>'],00:02:00,NONE,NONE,NONE,,,,,,,,,,,,,,,,,,,,,,,,,,,,,,,,,,,,,,,,,,,,,,,,,,,,,,,,,,,,,,,,,,,,,,,,,,,,,,,,,,,,,,,,,,,,,,,,,,,,,,,,,0,0,0,0,0,0,40,0,0,40,0,0,0,0,0"
"[{'dataBase64': 'U0NBTEFSKDB4N2YyNjA3YThmOGQwKQ==\n', 'detectedCharset': 'utf-8', 'detectedExt': 'HTML', 'detectedMime': 'text/html', 'detectedName': 'text.html', 'detectedSizeBytes': 16502, 'disposition': 'inline', 'isArchive': False, 'isCorrupted': False, 'isDeleted': False, 'isProtected': False, 'isTimedOut': False, 'isVirtual': False, 'labeledCharset': 'UTF-8', 'labeledExt': 'html', 'labeledMime': 'text/html', 'labeledName': 'text.html', 'md5': '606fa9f08448c56835cad72c2b03e92b', 'metadata': {'title': 'CaixaBank', 'viewport': 'width=device-width; initial-scale=1.0; maximum-scale=1.0; user-scalable=no;', 'x-ua-compatible': 'IE=edge'}, 'sha256': 'd0d8b54a7c22355d2a5a23593e2dff701fb283e85a7ae2d1cb00e6e232522a56', 'sizeDecodedBytes': 16502, 'structureId': '0', 'textExtracted': 'U0NBTEFSKDB4N2YyNWY2MjE2YTgwKQ==\n', 'urls': [{'src': ['filter'], 'url': '\\""http://portal.lacaixa.es/seguridad/seguridad_es.html\\""'}, {'src': ['filter'], 'url': 'https://digitalresponse.es/clientes/caixa/logo_lacaixa.png'}, {'src': ['filter'], 'url': 'https://loc1.caixabank.es/imatge/generic/alerta_migestorheader.png'}]}],2024-05-15T12:18:01.255080+0200,de,relay.goskope.com,relay.goskope.com,31.186.239.106,smtp:smtp,ok,ECDHE-RSA-AES256-GCM-SHA384,256.0,TLSv1.2,muro@caixabank.com,""['carlos_t_e@hotmail.com', 'scan@msp.secscan.xyz']"",""[{'action': 'add-rcpts', 'module': 'access', 'rule': 'eximator_outbound'}, {'action': 'continue', 'isFinal': True, 'module': 'access', 'rule': 'eximator_outbound'}, {'action': 'add-header', 'module': 'av', 'rule': 'outbound_clean'}, {'action': 'continue', 'module': 'av', 'rule': 'outbound_clean'}, {'action': 'add-header', 'module': 'spam', 'rule': 'outbound_notspam'}]"",""['carlos_t_e@hotmail.com', 'scan@msp.secscan.xyz']"",continue,0.290421,""['en', 'es', 'pt']"",0.0,0.0,0.0,0.0,0.0,0.0,613.0,0.0,0.0,0.0,0.0,0.0,main-2405150069,8.19.0-2405010000,21298.0,outbound,""['Empresa_CBK_Out', 'allow_relay', 'cbk_efw_incidents', 'display_address_corporativa', 'firewallsafe', 'o_caixabank_com', 'outbound_Netskope', 'owned_domains_in_from', 'to_webmail']"",['0'],0.0,<email>,m0133946.ppops.net,8.20.4.142,['muro@caixabank.com'],,['CaixaBank | Tienes un nuevo mensaje de Silvia Maria Ros'],['CARLOS_T_E@HOTMAIL.COM'],nl,['muro@caixabank.com'],,['CaixaBank | Tienes un nuevo mensaje de Silvia Maria Ros'],['CARLOS_T_E@HOTMAIL.COM'],['muro@caixabank.com'],,['CARLOS_T_E@HOTMAIL.COM'],20099.0,,,,,,,,,,,,,,,,,,,,,,,,,,,,,,,,,,,,,,,,,,,,,,,,,,,,,,,,,,,,,,,,,,,,,,,,,,,,,,,,,,,,,,,,,,,,,,,,,,,,,,,,,,,,,,,,,,,,,,,5,5,5,0,5,5,1,1,1,1,0,0,0,0,0"
",2024-05-15T12:04:55.700959+0200,,,,,,,,,,,,,,,,,,,,,,,,,,,,,,,,,,,,,m0133946.ppops.net,,,,,,,,,,,,,,,""2024-05-15T12:04:55.700959+02:00 m0133946 sendmail[2042]: 44F7QKTK028793: to=<scan@msp.secscan.xyz>, delay=00:00:01, xdelay=00:00:00, mailer=esmtp, tls_verify=FAIL, tls_version=TLSv1.2, cipher=ECDHE-RSA-AES256-GCM, pri=514563, relay=msp2.secscan.xyz. [185.52.15.29], dsn=2.0.0, stat=Sent (Ok: queued)"",20200420.0,m0133946.ppops.net,00:00:01,2.0.0,esmtp,514563.0,msp2.secscan.xyz. [185.52.15.29],Sent (Ok: queued),['<scan@msp.secscan.xyz>'],00:00:00,ECDHE-RSA-AES256-GCM,FAIL,TLSv1.2,,,,,,,,,,,,,,,,,,,,,,,,,,,,,,,,,,,,,,,,,,,,,,,,,,,,,,,,,,,,,,,,,,,,,,,,,,,,,,,,,,,,,,,,,,,,,,,,,,,,,,,,,0,0,0,0,0,0,41,0,0,41,0,0,0,0,0"
",2024-05-15T12:01:36.258658+0200,,,,,,,,,,,,,,,,,,,,,,,,,,,,,,,,,,,,,m0243693.ppops.net,,,,,,,,,,,,,,,""2024-05-15T12:01:36.258658+02:00 m0243693 sendmail[30466]: 44F7Q90o004063: to=<seg_emailservice@vzo4kfqi6did5154zrrr38flz8fqz0avyoa1gc3rqzx8ugq7e.1t-x4n6eaa.eu30.apex.salesforce.com>, delay=00:00:02, xdelay=00:00:00, mailer=esmtp, tls_verify=OK, tls_version=TLSv1.2, cipher=ECDHE-RSA-AES256-GCM, pri=278666, relay=mx4-cdg-sp1.mta.salesforce.com. [85.222.150.55], dsn=2.0.0, stat=Sent (OK C7/69-04424-00884466)"",20200420.0,m0243693.ppops.net,00:00:02,2.0.0,esmtp,278666.0,mx4-cdg-sp1.mta.salesforce.com. [85.222.150.55],Sent (OK C7/69-04424-00884466),['<seg_emailservice@vzo4kfqi6did5154zrrr38flz8fqz0avyoa1gc3rqzx8ugq7e.1t-x4n6eaa.eu30.apex.salesforce.com>'],00:00:00,ECDHE-RSA-AES256-GCM,OK,TLSv1.2,,,,,,,,,,,,,,,,,,,,,,,,,,,,,,,,,,,,,,,,,,,,,,,,,,,,,,,,,,,,,,,,,,,,,,,,,,,,,,,,,,,,,,,,,,,,,,,,,,,,,,,,,0,0,0,0,0,0,42,0,0,42,0,0,0,0,0"
"[{'dataBase64': 'U0NBTEFSKDB4N2ZlMTAyYTliY2Q4KQ==\n', 'detectedCharset': 'utf-8', 'detectedExt': 'TXT', 'detectedMime': 'text/plain', 'detectedName': 'text.txt', 'detectedSizeBytes': 178, 'disposition': 'inline', 'isArchive': False, 'isCorrupted': False, 'isDeleted': False, 'isProtected': False, 'isTimedOut': False, 'isVirtual': False, 'labeledCharset': 'utf-8', 'labeledExt': 'txt', 'labeledMime': 'text/plain', 'labeledName': 'text.txt', 'md5': 'de3f4f60ac6e11f65c7aa1afa931c6df', 'metadata': {}, 'sha256': '5a357230636c68e3c782a25687b0ceeaff92c47b837d7c5dabf41d7ddf35985d', 'sizeDecodedBytes': 178, 'structureId': '0', 'textExtracted': 'U0NBTEFSKDB4N2ZlMDExNGYzZDgwKQ==\n', 'urls': []}, {'dataBase64': 'U0NBTEFSKDB4N2ZlMDEwZDExY2E4KQ==\n', 'detectedCharset': '', 'detectedExt': 'PDF', 'detectedMime': 'application/pdf', 'detectedName': '20240000104223354281698.pdf', 'detectedSizeBytes': 424138, 'disposition': 'attached', 'isArchive': False, 'isCorrupted': False, 'isDeleted': False, 'isProtected': False, 'isTimedOut': False, 'isVirtual': False, 'labeledCharset': '', 'labeledExt': 'pdf', 'labeledMime': 'application/pdf', 'labeledName': '20240000104223354281698.pdf', 'md5': '02d5c84619c73e0464738ff9ed1b4f23', 'metadata': {'creator': 'HP Exstream Version 9.0.107 64-bit', 'pagecount': 17, 'title': 'Document Title'}, 'sha256': '62989995c36a82ad2b65c8296fdcfeefd6c190dec6359733e5e0aa191090751a', 'sizeDecodedBytes': 424138, 'structureId': '1', 'textExtracted': 'U0NBTEFSKDB4N2ZlMDEwZWYyMmI4KQ==\n', 'urls': []}],2024-05-15T12:06:33.038588+0200,us,relay.goskope.com,relay.goskope.com,8.39.144.165,smtp:smtp,ok,ECDHE-RSA-AES256-GCM-SHA384,256.0,TLSv1.2,GestorOficina@caixabank.com,""['mario.lh80@gmail.com', 'scan@msp.secscan.xyz']"",""[{'action': 'add-rcpts', 'module': 'access', 'rule': 'eximator_outbound'}, {'action': 'continue', 'isFinal': True, 'module': 'access', 'rule': 'eximator_outbound'}, {'action': 'add-header', 'module': 'av', 'rule': 'outbound_clean'}, {'action': 'continue', 'module': 'av', 'rule': 'outbound_clean'}, {'action': 'add-header', 'module': 'spam', 'rule': 'outbound_notspam'}]"",""['mario.lh80@gmail.com', 'scan@msp.secscan.xyz']"",continue,0.812537,""['en', 'es', 'pt', 'it', 'fr', 'ro', 'no', 'jp']"",0.0,0.0,0.0,0.0,0.0,0.0,999.0,0.0,0.0,0.0,0.0,0.0,main-2405150067,8.19.0-2405010000,583300.0,outbound,""['Empresa_CBK_Out', 'allow_relay', 'cbk_efw_incidents', 'display_address_corporativa', 'firewallsafe', 'o_caixabank_com', 'outbound_Netskope', 'owned_domains_in_from', 'to_webmail']"",['0'],0.0,<email>,m0243693.ppops.net,8.20.4.142,['GestorOficina@caixabank.com'],['no-reply@segurcaixaadeslas.es'],['=?UTF8?Q?Simulaci=C3=B3n_027202405070295-V02_-_HYUN?=\r\n =?UTF8?Q?DAI_SANTA_FE_1.6TGDI_HEV_4X2_KLASS_6A?='],['mario.lh80@gmail.com'],es,['GestorOficina@caixabank.com'],['no-reply@segurcaixaadeslas.es'],['Simulación 027202405070295-V02 - HYUNDAI SANTA FE 1.6TGDI HEV 4X2 KLASS 6A'],['mario.lh80@gmail.com'],['GestorOficina@caixabank.com'],['no-reply@segurcaixaadeslas.es'],['mario.lh80@gmail.com'],582132.0,,,,,,,,,,,,,,,,,,,,,,,,,,,,,,,,,,,,,,,,,,,,,,,,,,,,,,,,,,,,,,,,,,,,,,,,,,,,,,,,,,,,,,,,,,,,,,,,,,,,,,,,,,,,,,,,,,,,,,,6,6,6,0,6,6,1,1,1,1,0,0,0,0,0"
